City_ID,City,Lat,Lng,Max Temp,Humidity,Cloudiness,Wind Speed,Country,Date
0,hermanus,-34.4187,19.2345,11.25,63,90,1.9,ZA,2024-10-01 03:00:00
1,margaret river,-33.95,115.0667,17.44,74,92,2.59,AU,2024-10-01 03:00:00
2,pagar alam,-4.0167,103.2667,28.9,76,50,1.68,ID,2024-10-01 03:00:00
3,adamstown,-25.066,-130.1015,19.48,66,87,5.36,PN,2024-10-01 03:00:00
4,papatowai,-46.5619,169.4708,15.63,45,98,4.15,NZ,2024-10-01 03:00:00
5,port alfred,-33.5906,26.891,12.22,69,68,11.81,ZA,2024-10-01 03:00:00
6,saint-pierre,-21.3393,55.4781,22.43,63,0,3.79,RE,2024-10-01 03:00:00
7,chonchi,-42.6128,-73.8092,3.44,86,63,1.23,CL,2024-10-01 03:00:00
8,westport,41.1415,-73.3579,17.25,79,33,3.24,US,2024-10-01 03:00:00
9,dighwara,25.7333,85.0,28.95,87,59,3.67,IN,2024-10-01 03:00:00
10,tazacorte,28.629,-17.9293,22.51,85,71,1.83,ES,2024-10-01 03:00:00
11,cervera,41.67,1.2721,14.59,95,16,2.28,ES,2024-10-01 03:00:00
12,piti village,13.4626,144.6933,30.48,74,45,4.71,GU,2024-10-01 03:00:00
13,invercargill,-46.4,168.35,14.98,59,99,2.12,NZ,2024-10-01 03:00:00
14,puerto natales,-51.7236,-72.4875,2.84,89,85,4.04,CL,2024-10-01 03:00:00
15,eastham,41.8301,-69.9739,15.8,92,92,2.2,US,2024-10-01 03:00:00
16,tiksi,71.6872,128.8694,-4.4,91,100,1.69,RU,2024-10-01 03:00:00
17,pisco,-13.7,-76.2167,16.86,87,33,2.06,PE,2024-10-01 03:00:00
18,edinburgh of the seven seas,-37.0676,-12.3116,12.76,80,8,4.74,SH,2024-10-01 03:00:00
19,port-aux-francais,-49.35,70.2167,5.25,95,100,17.15,TF,2024-10-01 03:00:00
20,port lincoln,-34.7333,135.8667,16.91,67,3,4.91,AU,2024-10-01 03:00:00
21,vadso,70.0744,29.7487,5.56,70,71,8.87,NO,2024-10-01 03:00:00
22,governador dix sept rosado,-5.4589,-37.5208,26.67,55,59,4.72,BR,2024-10-01 03:00:00
23,south hedland,-20.4089,118.5983,31.41,39,0,5.23,AU,2024-10-01 03:00:00
24,anadyr,64.75,177.4833,6.6,91,60,8.72,RU,2024-10-01 03:00:00
25,nova sintra,14.8667,-24.7167,26.57,87,11,3.13,CV,2024-10-01 03:00:00
26,gaiman,-43.2897,-65.4929,5.15,62,64,3.06,AR,2024-10-01 03:00:00
27,guerrero negro,27.9769,-114.0611,21.68,73,64,4.78,MX,2024-10-01 03:00:00
28,waitangi,-43.9535,-176.5597,10.3,75,94,7.87,NZ,2024-10-01 03:00:00
29,sorong,-0.8833,131.25,28.49,73,70,2.7,ID,2024-10-01 03:00:00
30,cabo san lucas,22.8909,-109.9124,27.79,73,32,2.47,MX,2024-10-01 03:00:00
31,flin flon,54.7682,-101.865,6.77,67,76,5.21,CA,2024-10-01 03:00:00
32,kodiak,57.79,-152.4072,9.96,67,47,7.54,US,2024-10-01 03:00:00
33,mariehamn,60.0973,19.9348,10.73,89,6,3.75,AX,2024-10-01 03:00:00
34,namibe,-15.1961,12.1522,16.91,90,45,1.66,AO,2024-10-01 03:00:00
35,palu,-0.8917,119.8707,33.65,72,96,1.37,ID,2024-10-01 03:00:00
36,pulungmasle,15.0102,120.5429,29.48,81,100,4.93,PH,2024-10-01 03:00:00
37,petropavlovsk-kamchatsky,53.0452,158.6483,10.5,74,83,2.9,RU,2024-10-01 03:00:00
38,arkhangel'sk,64.5401,40.5433,2.78,88,27,3.53,RU,2024-10-01 03:00:00
39,badger,64.8,-147.5333,10.32,47,27,2.15,US,2024-10-01 03:00:00
40,albany,42.6001,-73.9662,17.09,74,100,1.86,US,2024-10-01 03:00:00
41,sao vicente,-23.9631,-46.3919,22.37,44,4,1.79,BR,2024-10-01 03:00:00
42,kalymnos,36.95,26.9833,20.43,62,13,9.97,GR,2024-10-01 03:00:00
43,udachny,66.4167,112.4,0.67,99,100,2.44,RU,2024-10-01 03:00:00
44,bardai,11.65,7.2333,22.71,84,46,3.85,NG,2024-10-01 03:00:00
45,blackmans bay,-43.0167,147.3167,13.07,49,37,6.51,AU,2024-10-01 03:00:00
46,wynyard,-41.0,145.7167,14.91,56,30,5.84,AU,2024-10-01 03:00:00
47,inhambane,-23.865,35.3833,21.65,86,90,5.73,MZ,2024-10-01 03:00:00
48,tezu,27.9167,96.1667,29.59,84,90,1.24,IN,2024-10-01 03:00:00
49,port mathurin,-19.6833,63.4167,22.43,77,4,10.04,MU,2024-10-01 03:00:00
50,dadukou,26.5479,101.7054,21.3,82,100,1.55,CN,2024-10-01 03:00:00
51,vorgashor,67.5833,63.95,2.84,74,100,14.53,RU,2024-10-01 03:00:00
52,ushuaia,-54.8,-68.3,-4.24,90,100,1.37,AR,2024-10-01 03:00:00
53,malango,-2.9627,119.9001,28.68,63,100,2.47,ID,2024-10-01 03:00:00
54,dudinka,69.4058,86.1778,3.94,90,100,5.83,RU,2024-10-01 03:00:00
55,palikir - national government center,6.9248,158.1611,29.89,74,86,4.46,FM,2024-10-01 03:00:00
56,makoua,0.0069,15.6333,22.55,96,84,1.18,CG,2024-10-01 03:00:00
57,leh,34.1667,77.5833,9.21,31,0,1.69,IN,2024-10-01 03:00:00
58,grytviken,-54.2811,-36.5092,-2.91,71,40,5.69,GS,2024-10-01 03:00:00
59,puerto ayora,-0.7393,-90.3518,20.19,92,96,3.58,EC,2024-10-01 03:00:00
60,new norfolk,-42.7826,147.0587,14.16,43,42,5.02,AU,2024-10-01 03:00:00
61,nahan,30.55,77.3,25.03,55,37,0.61,IN,2024-10-01 03:00:00
62,sao felix do xingu,-6.6447,-51.995,22.69,93,63,0.8,BR,2024-10-01 03:00:00
63,port elizabeth,-33.918,25.5701,11.62,77,48,9.15,ZA,2024-10-01 03:00:00
64,ust-nera,64.5667,143.2,-0.7,73,94,1.26,RU,2024-10-01 03:00:00
65,tofol,5.3248,163.0078,31.04,71,83,3.92,FM,2024-10-01 03:00:00
66,lihue,21.9789,-159.3672,28.04,72,75,4.23,US,2024-10-01 03:00:00
67,ust'-uda,54.1742,103.0304,3.98,94,100,4.44,RU,2024-10-01 03:00:00
68,sinabang,2.4803,96.3801,27.39,84,100,2.34,ID,2024-10-01 03:00:00
69,revda,56.801,59.9303,9.05,70,99,2.16,RU,2024-10-01 03:00:00
70,hithadhoo,-0.6,73.0833,28.12,77,12,4.37,MV,2024-10-01 03:00:00
71,port hueneme,34.1478,-119.1951,21.07,75,0,2.91,US,2024-10-01 03:00:00
72,ponta delgada,37.7333,-25.6667,24.14,93,70,5.85,PT,2024-10-01 03:00:00
73,cooma,-36.2333,149.1333,19.48,40,4,1.6,AU,2024-10-01 03:00:00
74,moires,35.0532,24.8744,17.79,69,0,1.81,GR,2024-10-01 03:00:00
75,corcova,44.7,23.05,7.91,74,33,2.9,RO,2024-10-01 03:00:00
76,pinhao,-25.6956,-51.6597,18.47,49,0,1.69,BR,2024-10-01 03:00:00
77,sitka,57.0531,-135.33,11.39,64,100,4.74,US,2024-10-01 03:00:00
78,vila velha,-20.3297,-40.2925,22.28,92,13,2.8,BR,2024-10-01 03:00:00
79,kapuskasing,49.4169,-82.4331,12.93,69,39,3.94,CA,2024-10-01 03:00:00
80,talcahuano,-36.7167,-73.1167,11.93,87,54,0.82,CL,2024-10-01 03:00:00
81,denia,38.8408,0.1057,19.56,81,0,1.72,ES,2024-10-01 03:00:00
82,quinte west,44.1834,-77.5662,15.99,82,0,3.09,CA,2024-10-01 03:00:00
83,fort bragg,35.139,-79.006,23.11,90,73,2.12,US,2024-10-01 03:00:00
84,kayangel,8.0823,134.7173,29.54,76,100,7.06,PW,2024-10-01 03:00:00
85,vilyuchinsk,52.9306,158.4028,10.96,78,100,1.47,RU,2024-10-01 03:00:00
86,los llanos,18.6203,-69.4958,25.23,90,32,1.75,DO,2024-10-01 03:00:00
87,nueva villa de padilla,24.0167,-98.7833,28.02,56,8,3.45,MX,2024-10-01 03:00:00
88,wailua homesteads,22.0669,-159.378,26.71,76,76,4.5,US,2024-10-01 03:00:00
89,agat village,13.3886,144.6585,30.03,81,45,4.63,GU,2024-10-01 03:00:00
90,batman,37.8874,41.1322,21.74,49,25,1.56,TR,2024-10-01 03:00:00
91,tazovsky,67.4667,78.7,3.47,84,77,10.0,RU,2024-10-01 03:00:00
92,ocean city,39.2776,-74.5746,19.82,85,99,5.46,US,2024-10-01 03:00:00
93,lakatoro,-16.0999,167.4164,28.8,67,4,0.8,VU,2024-10-01 03:00:00
94,gbarnga,6.9956,-9.4722,22.15,100,100,0.77,LR,2024-10-01 03:00:00
95,igarka,67.4667,86.5833,3.98,83,97,7.85,RU,2024-10-01 03:00:00
96,keflavik,64.0049,-22.5624,7.7,83,83,8.24,IS,2024-10-01 03:00:00
97,aasiaat,68.7098,-52.8699,2.91,82,95,1.99,GL,2024-10-01 03:00:00
98,sultanbeyli,40.9607,29.2707,15.92,61,82,3.72,TR,2024-10-01 03:00:00
99,kill devil hills,36.0307,-75.676,22.92,88,81,4.53,US,2024-10-01 03:00:00
100,genappe,50.609,4.449,12.41,88,67,8.88,BE,2024-10-01 03:00:00
101,mili,6.0815,171.735,28.31,73,100,3.6,MH,2024-10-01 03:00:00
102,bethel,41.3712,-73.414,15.43,87,33,1.14,US,2024-10-01 03:00:00
103,mata-utu,-13.2816,-176.1745,27.57,75,19,4.28,WF,2024-10-01 03:00:00
104,enewetak,11.3474,162.3373,29.04,75,55,4.73,MH,2024-10-01 03:00:00
105,usinsk,65.9939,57.5281,4.34,76,66,12.4,RU,2024-10-01 03:00:00
106,ribeira grande,38.5167,-28.7,23.8,94,89,11.52,PT,2024-10-01 03:00:00
107,paso de los toros,-32.8167,-56.5167,19.37,97,75,4.14,UY,2024-10-01 03:00:00
108,punta arenas,-53.15,-70.9167,2.24,86,100,3.13,CL,2024-10-01 03:00:00
109,onega,63.9061,38.1404,3.15,80,2,4.04,RU,2024-10-01 03:00:00
110,diapaga,12.0708,1.7889,24.99,89,18,2.43,BF,2024-10-01 03:00:00
111,bryne,58.7354,5.6477,10.76,74,32,7.97,NO,2024-10-01 03:00:00
112,corfu,39.62,19.9197,17.13,63,0,3.42,GR,2024-10-01 03:00:00
113,akjoujt,19.6969,-14.4164,31.92,29,100,7.53,MR,2024-10-01 03:00:00
114,kudahuvadhoo,2.6708,72.8944,27.9,78,99,4.26,MV,2024-10-01 03:00:00
115,morales,2.757,-76.6172,16.16,96,87,0.26,CO,2024-10-01 03:00:00
116,olinda,-8.0089,-34.8553,24.41,73,58,5.38,BR,2024-10-01 03:00:00
117,georgetown,5.4112,100.3354,28.37,84,28,2.58,MY,2024-10-01 03:00:00
118,hasaki,35.7333,140.8333,24.15,94,100,4.63,JP,2024-10-01 03:00:00
119,viedma,-40.8135,-62.9967,7.91,72,100,4.64,AR,2024-10-01 03:00:00
120,mendoza,-32.8908,-68.8272,22.77,15,1,4.76,AR,2024-10-01 03:00:00
121,iqaluit,63.7506,-68.5145,4.74,73,100,3.23,CA,2024-10-01 03:00:00
122,ancud,-41.8697,-73.8203,4.56,71,51,3.17,CL,2024-10-01 03:00:00
123,kalmunai,7.4167,81.8167,29.15,78,25,6.14,LK,2024-10-01 03:00:00
124,illizi,26.4833,8.4667,27.94,28,0,4.42,DZ,2024-10-01 03:00:00
125,thunder bay,48.4001,-89.3168,16.71,66,38,7.13,CA,2024-10-01 03:00:00
126,saldanha,-33.0117,17.9442,10.59,62,4,2.64,ZA,2024-10-01 03:00:00
127,trairi,-3.2778,-39.2689,25.18,80,27,6.71,BR,2024-10-01 03:00:00
128,dakoro,14.5106,6.765,30.67,31,25,3.56,NE,2024-10-01 03:00:00
129,shanhecun,44.7,127.2,11.16,66,86,2.43,CN,2024-10-01 03:00:00
130,hassi messaoud,31.6804,6.0729,26.54,41,1,3.24,DZ,2024-10-01 03:00:00
131,gumdag,39.2061,54.5906,16.14,19,0,4.98,TM,2024-10-01 03:00:00
132,quatre cocos,-20.2078,57.7625,22.67,77,31,6.8,MU,2024-10-01 03:00:00
133,moussoro,13.6408,16.4901,30.83,36,44,3.9,TD,2024-10-01 03:00:00
134,utrik,11.2278,169.8474,27.98,77,98,5.77,MH,2024-10-01 03:00:00
135,praia da vitoria,38.7333,-27.0667,23.07,87,64,6.25,PT,2024-10-01 03:00:00
136,west island,-12.1568,96.8225,25.92,91,61,9.91,CC,2024-10-01 03:00:00
137,orchard homes,46.8633,-114.0484,13.28,31,8,0.69,US,2024-10-01 03:00:00
138,east london,-33.0153,27.9116,12.61,55,19,10.18,ZA,2024-10-01 03:00:00
139,kolomna,55.0794,38.7783,8.89,78,68,5.56,RU,2024-10-01 03:00:00
140,tamanrasset,22.785,5.5228,23.77,25,27,10.23,DZ,2024-10-01 03:00:00
141,bredasdorp,-34.5322,20.0403,9.54,71,55,2.49,ZA,2024-10-01 03:00:00
142,monterey,36.2505,-121.2516,31.53,13,0,3.0,US,2024-10-01 03:00:00
143,isafjordur,66.0755,-23.124,3.21,89,100,6.55,IS,2024-10-01 03:00:00
144,ilulissat,69.2167,-51.1,3.25,94,100,1.92,GL,2024-10-01 03:00:00
145,wuxue,29.8506,115.5525,17.95,84,100,2.4,CN,2024-10-01 03:00:00
146,sola,-13.8833,167.55,26.75,72,68,0.53,VU,2024-10-01 03:00:00
147,eyl,7.9803,49.8164,24.69,87,26,2.42,SO,2024-10-01 03:00:00
148,laguna,38.421,-121.4238,30.75,20,0,1.42,US,2024-10-01 03:00:00
149,bayanaul,50.7889,75.6956,14.4,41,10,0.62,KZ,2024-10-01 03:00:00
150,aldinga beach,-35.2793,138.4604,15.32,75,20,2.62,AU,2024-10-01 03:00:00
151,marka,1.7159,44.7717,25.13,82,80,3.73,SO,2024-10-01 03:00:00
152,shimoda,34.6667,138.95,23.62,90,100,7.55,JP,2024-10-01 03:00:00
153,san patricio,28.017,-97.5169,27.74,50,0,4.06,US,2024-10-01 03:00:00
154,qingdao,36.0986,120.3719,19.38,58,54,7.48,CN,2024-10-01 03:00:00
155,nazyvayevsk,55.5698,71.3529,10.54,64,76,3.04,RU,2024-10-01 03:00:00
156,nar'yan-mar,67.6713,53.087,4.46,71,75,12.56,RU,2024-10-01 03:00:00
157,stanley,54.868,-1.6985,10.39,96,83,5.76,GB,2024-10-01 03:00:00
158,khandyga,62.6667,135.6,1.34,95,100,2.74,RU,2024-10-01 03:00:00
159,talnakh,69.4865,88.3972,2.46,100,100,3.1,RU,2024-10-01 03:00:00
160,kerikeri,-35.2268,173.9474,16.12,68,100,4.41,NZ,2024-10-01 03:00:00
161,plettenberg bay,-34.0527,23.3716,10.37,80,77,5.11,ZA,2024-10-01 03:00:00
162,port saint john's,-31.6229,29.5448,13.44,54,14,8.06,ZA,2024-10-01 03:00:00
163,qaqortoq,60.7167,-46.0333,3.9,97,100,1.1,GL,2024-10-01 03:00:00
164,uige,-7.6087,15.0613,19.83,88,99,1.06,AO,2024-10-01 03:00:00
165,alice springs,-23.7,133.8833,24.14,25,72,6.41,AU,2024-10-01 03:00:00
166,ceyhan,37.0247,35.8175,19.65,92,3,0.9,TR,2024-10-01 03:00:00
167,arkalyk,50.2486,66.9114,12.94,42,27,4.2,KZ,2024-10-01 03:00:00
168,constantia,44.1833,28.65,10.72,92,100,14.41,RO,2024-10-01 03:00:00
169,longyearbyen,78.2186,15.6401,-1.23,98,83,1.44,SJ,2024-10-01 03:00:00
170,andergrove,-21.0833,149.1833,24.68,68,3,5.68,AU,2024-10-01 03:00:00
171,jamestown,42.097,-79.2353,18.8,89,100,2.1,US,2024-10-01 03:00:00
172,yellowknife,62.456,-114.3525,3.79,94,100,7.74,CA,2024-10-01 03:00:00
173,mil'kovo,55.6078,37.7956,8.5,71,78,6.43,RU,2024-10-01 03:00:00
174,peterhead,57.5058,-1.7981,11.66,83,22,6.35,GB,2024-10-01 03:00:00
175,bilibino,68.0546,166.4372,0.65,95,100,0.88,RU,2024-10-01 03:00:00
176,avarua,-21.2078,-159.775,24.05,68,81,8.95,CK,2024-10-01 03:00:00
177,santo antonio do ica,-3.1022,-67.9397,25.65,70,27,0.87,BR,2024-10-01 03:00:00
178,vakarai,55.6035,23.8213,5.84,65,97,4.29,LT,2024-10-01 03:00:00
179,minas de marcona,-15.2119,-75.1103,12.39,89,86,4.42,PE,2024-10-01 03:00:00
180,hinis,39.3606,41.7022,12.75,62,88,1.82,TR,2024-10-01 03:00:00
181,college,64.8569,-147.8028,10.65,46,13,2.36,US,2024-10-01 03:00:00
182,banda aceh,5.5577,95.3222,28.58,80,88,4.37,ID,2024-10-01 03:00:00
183,karasu,41.071,30.7854,14.97,84,92,6.92,TR,2024-10-01 03:00:00
184,kelibia,36.8476,11.0939,20.0,61,1,2.28,TN,2024-10-01 03:00:00
185,salym,60.0625,71.4789,9.54,76,77,3.76,RU,2024-10-01 03:00:00
186,kununurra,-15.7667,128.7333,37.72,21,0,6.61,AU,2024-10-01 03:00:00
187,bulancak,40.9372,38.2291,18.86,82,83,1.48,TR,2024-10-01 03:00:00
188,katsuura,35.1333,140.3,24.71,95,100,6.1,JP,2024-10-01 03:00:00
189,wanning,18.8003,110.3967,30.22,83,94,1.07,CN,2024-10-01 03:00:00
190,beya,53.0533,90.9139,9.03,81,100,5.48,RU,2024-10-01 03:00:00
191,concordia,-31.393,-58.0209,27.07,74,57,3.65,AR,2024-10-01 03:00:00
192,susuman,62.7833,148.1667,-0.73,53,65,0.97,RU,2024-10-01 03:00:00
193,weno,7.4515,151.8468,30.45,73,62,4.12,FM,2024-10-01 03:00:00
194,whitehorse,60.7161,-135.0538,5.68,55,97,1.55,CA,2024-10-01 03:00:00
195,tangalle,6.024,80.7911,28.29,82,65,2.57,LK,2024-10-01 03:00:00
196,xichang,27.8964,102.2634,20.59,73,68,1.07,CN,2024-10-01 03:00:00
197,lazaro cardenas,17.9583,-102.2,26.9,81,67,1.22,MX,2024-10-01 03:00:00
198,susanville,40.4163,-120.653,20.78,22,0,1.41,US,2024-10-01 03:00:00
199,acarau,-2.8856,-40.12,25.39,79,55,8.1,BR,2024-10-01 03:00:00
200,dyurtyuli,55.4911,54.8688,11.17,51,100,1.22,RU,2024-10-01 03:00:00
201,saipan,15.1355,145.701,30.56,72,43,4.26,MP,2024-10-01 03:00:00
202,tura,25.5198,90.2201,27.1,95,73,1.26,IN,2024-10-01 03:00:00
203,parambu,-6.2111,-40.6944,27.85,42,82,2.37,BR,2024-10-01 03:00:00
204,intendente alvear,-35.2338,-63.592,19.2,27,55,8.83,AR,2024-10-01 03:00:00
205,ifrane,33.3333,-5.25,17.77,54,30,3.2,MA,2024-10-01 03:00:00
206,puerto gaitan,4.3133,-72.0816,28.64,65,60,1.5,CO,2024-10-01 03:00:00
207,novyy urengoy,66.0833,76.6333,4.01,73,48,9.72,RU,2024-10-01 03:00:00
208,freetown,8.484,-13.2299,25.13,87,93,2.76,SL,2024-10-01 03:00:00
209,banamba,13.55,-7.45,26.17,74,49,3.2,ML,2024-10-01 03:00:00
210,ed damer,17.5928,33.9592,31.66,40,48,2.64,SD,2024-10-01 03:00:00
211,st. john's,47.5649,-52.7093,12.44,90,100,4.9,CA,2024-10-01 03:00:00
212,kamaishi,39.2667,141.8833,24.28,69,0,3.62,JP,2024-10-01 03:00:00
213,hailar,49.2,119.7,5.14,48,82,7.17,CN,2024-10-01 03:00:00
214,ironwood,46.4547,-90.171,20.12,50,17,6.4,US,2024-10-01 03:00:00
215,changchun,43.88,125.3228,12.05,60,38,3.74,CN,2024-10-01 03:00:00
216,uturoa,-16.7333,-151.4333,26.78,76,34,3.48,PF,2024-10-01 03:00:00
217,buka,40.8108,69.1986,17.16,51,24,0.63,UZ,2024-10-01 03:00:00
218,sisimiut,66.9395,-53.6735,3.96,88,89,2.48,GL,2024-10-01 03:00:00
219,antalaha,-14.9003,50.2788,20.26,89,34,2.63,MG,2024-10-01 03:00:00
220,dzilam gonzalez,21.2833,-88.9333,25.56,84,98,1.64,MX,2024-10-01 03:00:00
221,cox's bazar,21.4532,91.9798,28.69,87,85,1.62,BD,2024-10-01 03:00:00
222,kone,-21.0595,164.8658,28.59,48,0,5.69,NC,2024-10-01 03:00:00
223,kavaratti,10.5669,72.642,27.82,80,99,3.67,IN,2024-10-01 03:00:00
224,prince rupert,54.3161,-130.3201,7.71,86,100,6.61,CA,2024-10-01 03:00:00
225,posto fiscal rolim de moura,-13.0833,-62.2667,25.26,82,88,1.51,BR,2024-10-01 03:00:00
226,shingu,33.7333,135.9833,28.5,57,84,2.05,JP,2024-10-01 03:00:00
227,lere,10.387,8.5726,21.43,86,9,1.62,NG,2024-10-01 03:00:00
228,onguday,50.75,86.15,8.21,62,100,1.24,RU,2024-10-01 03:00:00
229,kailua-kona,19.6406,-155.9956,27.92,70,1,1.79,US,2024-10-01 03:00:00
230,lanxi,29.2195,119.477,23.86,84,61,3.52,CN,2024-10-01 03:00:00
231,la mira,18.035,-102.3266,25.99,85,69,1.41,MX,2024-10-01 03:00:00
232,juva,56.4368,57.9478,9.03,67,71,1.44,RU,2024-10-01 03:00:00
233,atafu village,-8.5421,-172.5159,28.37,73,38,3.83,TK,2024-10-01 03:00:00
234,angaur state,6.906,134.13,28.96,75,100,4.79,PW,2024-10-01 03:00:00
235,thief river falls,48.1191,-96.1812,12.72,41,4,7.99,US,2024-10-01 03:00:00
236,lospalos,-8.5186,127.0025,29.92,55,89,5.07,TL,2024-10-01 03:00:00
237,rota,36.6224,-6.3586,20.84,82,2,2.69,ES,2024-10-01 03:00:00
238,yujing,23.1249,120.4614,27.81,75,100,0.57,TW,2024-10-01 03:00:00
239,gadzhiyevo,69.2551,33.3362,2.3,79,36,7.39,RU,2024-10-01 03:00:00
240,ashland,40.8167,-82.2665,18.32,96,95,2.34,US,2024-10-01 03:00:00
241,whistler,50.1164,-122.9695,9.43,64,93,1.85,CA,2024-10-01 03:00:00
242,kabala,9.5833,-11.55,21.05,98,93,0.69,SL,2024-10-01 03:00:00
243,la'ie,21.6477,-157.9253,27.78,74,18,6.18,US,2024-10-01 03:00:00
244,aswan,24.0934,32.907,26.06,31,0,3.98,EG,2024-10-01 03:00:00
245,amiens,49.9,2.3,12.73,85,91,6.21,FR,2024-10-01 03:00:00
246,santiago de cao,-7.9589,-79.2392,17.0,89,79,4.76,PE,2024-10-01 03:00:00
247,klyuchi,52.2667,79.1667,15.47,47,13,3.01,RU,2024-10-01 03:00:00
248,egilsstadir,65.2653,-14.3948,1.75,85,97,3.47,IS,2024-10-01 03:00:00
249,kargopol',61.5071,38.9456,1.34,89,1,1.25,RU,2024-10-01 03:00:00
250,sirte,31.2089,16.5887,23.57,58,1,2.76,LY,2024-10-01 03:00:00
251,neftekamsk,56.092,54.2703,9.82,55,80,2.43,RU,2024-10-01 03:00:00
252,swakopmund,-22.6833,14.5333,11.63,80,0,2.98,NA,2024-10-01 03:00:00
253,bandar abbas,27.1865,56.2808,29.06,76,2,1.86,IR,2024-10-01 03:00:00
254,hamilton,39.1834,-84.5333,20.26,93,73,1.4,US,2024-10-01 03:00:00
255,carbonear,47.7332,-53.2148,12.58,89,100,4.33,CA,2024-10-01 03:00:00
256,afaahiti,-17.75,-149.2833,25.97,75,34,1.92,PF,2024-10-01 03:00:00
257,kyzyl-suu,42.3414,78.0056,13.69,44,84,1.18,KG,2024-10-01 03:00:00
258,lompoc,34.6391,-120.4579,18.75,79,27,2.14,US,2024-10-01 03:00:00
259,brookings,44.3114,-96.7984,15.81,35,11,4.1,US,2024-10-01 03:00:00
260,lebu,-37.6167,-73.65,9.19,88,85,3.58,CL,2024-10-01 03:00:00
261,tolanaro,-25.0319,46.9987,22.79,77,87,1.13,MG,2024-10-01 03:00:00
262,thinadhoo,0.5333,72.9333,27.93,75,84,3.23,MV,2024-10-01 03:00:00
263,panaba,21.2833,-88.2667,24.54,93,99,3.03,MX,2024-10-01 03:00:00
264,el granada,37.5027,-122.4694,20.27,60,0,3.99,US,2024-10-01 03:00:00
265,colonia,50.9333,6.95,14.27,83,48,4.17,DE,2024-10-01 03:00:00
266,songyuan,45.1171,124.8568,12.91,47,44,4.58,CN,2024-10-01 03:00:00
267,happy valley-goose bay,53.3168,-60.3315,6.74,76,14,1.22,CA,2024-10-01 03:00:00
268,uzhur,55.3036,89.8339,11.48,68,100,6.03,RU,2024-10-01 03:00:00
269,necochea,-38.5473,-58.7368,10.68,78,84,6.09,AR,2024-10-01 03:00:00
270,antsiranana,-12.2787,49.2917,23.49,79,40,7.75,MG,2024-10-01 03:00:00
271,iskateley,67.6803,53.1512,4.48,71,77,12.48,RU,2024-10-01 03:00:00
272,yanykurgan,43.915,67.2481,17.72,22,70,2.89,KZ,2024-10-01 03:00:00
273,arraial do cabo,-22.9661,-42.0278,22.34,88,0,12.43,BR,2024-10-01 03:00:00
274,worland,44.0169,-107.9554,14.74,18,33,1.66,US,2024-10-01 03:00:00
275,sirur,18.8333,74.3833,26.6,80,12,2.41,IN,2024-10-01 03:00:00
276,ascension,30.2169,-90.9001,25.78,73,0,1.98,US,2024-10-01 03:00:00
277,ambon,-3.6954,128.1814,28.61,87,59,3.85,ID,2024-10-01 03:00:00
278,kapa'a,22.0752,-159.319,27.52,74,75,5.8,US,2024-10-01 03:00:00
279,flying fish cove,-10.4217,105.6791,26.6,90,83,9.1,CX,2024-10-01 03:00:00
280,yinchuan,38.4681,106.2731,11.58,23,1,0.3,CN,2024-10-01 03:00:00
281,vorkuta,67.5,64.0,3.08,73,100,14.35,RU,2024-10-01 03:00:00
282,long beach,33.767,-118.1892,21.33,74,0,2.3,US,2024-10-01 03:00:00
283,ust'-kulom,61.6864,53.6902,3.7,87,16,3.95,RU,2024-10-01 03:00:00
284,vallenar,-28.5708,-70.7581,15.1,62,17,0.31,CL,2024-10-01 03:00:00
285,mejit,10.2753,170.8646,27.98,76,78,5.48,MH,2024-10-01 03:00:00
286,lata,40.1629,-8.3327,15.11,98,85,0.71,PT,2024-10-01 03:00:00
287,lerwick,60.1545,-1.1494,10.61,88,43,3.4,GB,2024-10-01 03:00:00
288,berezovyy,51.6667,135.7,7.24,84,85,1.68,RU,2024-10-01 03:00:00
289,holbaek,55.7167,11.7167,11.62,54,50,9.08,DK,2024-10-01 03:00:00
290,mount carmel,38.4109,-87.7614,21.89,86,73,2.36,US,2024-10-01 03:00:00
291,sao miguel,-5.4667,-35.3667,24.15,76,20,7.83,BR,2024-10-01 03:00:00
292,polyarnyy,69.1989,33.4478,2.42,77,35,7.55,RU,2024-10-01 03:00:00
293,sur,22.5667,59.5289,28.33,68,0,2.63,OM,2024-10-01 03:00:00
294,hawaiian paradise park,19.5933,-154.9731,27.17,76,27,3.77,US,2024-10-01 03:00:00
295,labasa,-16.4167,179.3833,26.97,76,55,3.54,FJ,2024-10-01 03:00:00
296,dedza,-14.3779,34.3332,16.67,47,0,2.06,MW,2024-10-01 03:00:00
297,geraldton,-28.7667,114.6,22.12,71,0,6.39,AU,2024-10-01 03:00:00
298,porto novo,6.4965,2.6036,24.44,87,55,2.02,BJ,2024-10-01 03:00:00
299,fada,7.25,4.0667,22.58,99,97,0.96,NG,2024-10-01 03:00:00
300,"laikit, laikit ii (dimembe)",1.4792,124.9735,29.69,68,47,0.72,ID,2024-10-01 03:00:00
301,ingeniero jacobacci,-41.3427,-69.5448,4.89,61,5,5.3,AR,2024-10-01 03:00:00
302,guiuan,11.0333,125.7247,29.45,72,98,5.49,PH,2024-10-01 03:00:00
303,petropavlovka,50.6114,105.3196,5.13,66,82,1.51,RU,2024-10-01 03:00:00
304,tommot,58.9564,126.2925,2.78,96,100,5.51,RU,2024-10-01 03:00:00
305,dunholme,53.3007,-0.4654,11.83,92,100,7.89,GB,2024-10-01 03:00:00
306,libenge,3.65,18.6333,21.38,98,100,1.25,CD,2024-10-01 03:00:00
307,kirakira,-10.4544,161.9205,29.22,72,27,3.17,SB,2024-10-01 03:00:00
308,laojunmiao,39.8333,97.7333,8.66,22,0,2.31,CN,2024-10-01 03:00:00
309,hirara,24.8,125.2833,28.95,86,97,9.21,JP,2024-10-01 03:00:00
310,remire-montjoly,4.9167,-52.2667,27.2,81,9,5.79,GF,2024-10-01 03:00:00
311,moletai,55.2333,25.4167,6.65,62,100,4.19,LT,2024-10-01 03:00:00
312,nizhneangarsk,55.7833,109.55,4.73,76,99,5.12,RU,2024-10-01 03:00:00
313,san antonio de pale,-1.4014,5.6325,24.78,82,78,6.47,GQ,2024-10-01 03:00:00
314,mount gambier,-37.8333,140.7667,16.45,60,17,3.91,AU,2024-10-01 03:00:00
315,puerto aysen,-45.4,-72.7,-1.27,99,66,1.79,CL,2024-10-01 03:00:00
316,catriel,-37.8791,-67.7956,14.79,38,100,11.96,AR,2024-10-01 03:00:00
317,barcelona,41.3888,2.159,21.15,75,13,2.37,ES,2024-10-01 03:00:00
318,lubang,13.8584,120.124,29.02,77,100,8.15,PH,2024-10-01 03:00:00
319,camiri,-20.05,-63.5167,29.15,37,40,2.44,BO,2024-10-01 03:00:00
320,thompson,55.7435,-97.8558,4.93,91,100,9.68,CA,2024-10-01 03:00:00
321,pingzhuang,42.0372,119.2889,9.3,52,66,4.2,CN,2024-10-01 03:00:00
322,hadibu,12.65,54.0333,25.23,82,12,2.43,YE,2024-10-01 03:00:00
323,maseru,-29.3167,27.4833,1.99,71,13,2.46,LS,2024-10-01 03:00:00
324,hanoi,21.0245,105.8412,29.37,81,85,7.2,VN,2024-10-01 03:00:00
325,paita,-5.0892,-81.1144,17.72,87,73,5.03,PE,2024-10-01 03:00:00
326,campo gallo,-26.5833,-62.85,34.58,21,21,2.91,AR,2024-10-01 03:00:00
327,nemuro,43.3236,145.575,18.36,89,67,7.5,JP,2024-10-01 03:00:00
328,mizhirah,16.8261,42.7333,31.5,67,25,1.2,SA,2024-10-01 03:00:00
329,la ronge,55.1001,-105.2842,8.37,57,38,3.72,CA,2024-10-01 03:00:00
330,aoulef,26.9667,1.0833,33.49,19,0,9.85,DZ,2024-10-01 03:00:00
331,kidal,18.4411,1.4078,33.43,19,24,7.16,ML,2024-10-01 03:00:00
332,jinxiang,27.4327,120.6062,26.42,85,72,4.65,CN,2024-10-01 03:00:00
333,sao joao da barra,-21.6403,-41.0511,22.78,90,1,7.17,BR,2024-10-01 03:00:00
334,foindu,7.4108,-11.5422,23.12,98,100,0.8,SL,2024-10-01 03:00:00
335,atherton,53.5237,-2.4935,10.24,96,100,2.39,GB,2024-10-01 03:00:00
336,murun-kuren,49.6342,100.1625,5.82,59,81,7.2,MN,2024-10-01 03:00:00
337,arno,60.1167,18.6333,6.74,75,22,1.89,SE,2024-10-01 03:00:00
338,bouarfa,32.53,-1.95,23.17,46,63,0.34,MA,2024-10-01 03:00:00
339,yuzhno-kurilsk,44.0306,145.8556,19.07,94,98,4.11,RU,2024-10-01 03:00:00
340,olonkinbyen,70.9221,-8.7187,-1.39,64,100,5.03,SJ,2024-10-01 03:00:00
341,luanda,-8.8368,13.2343,22.55,88,56,2.69,AO,2024-10-01 03:00:00
342,la asuncion,11.0333,-63.8628,26.86,83,53,1.92,VE,2024-10-01 03:00:00
343,dryden,49.7833,-92.7503,12.69,52,64,7.38,CA,2024-10-01 03:00:00
344,aripuana,-9.1667,-60.6333,23.47,94,100,0.75,BR,2024-10-01 03:00:00
345,boyabat,41.4689,34.7667,14.29,77,94,1.29,TR,2024-10-01 03:00:00
346,mao,39.8885,4.2658,20.13,75,2,1.0,ES,2024-10-01 03:00:00
347,vila franca do campo,37.7167,-25.4333,23.95,95,39,4.73,PT,2024-10-01 03:00:00
348,hohhot,40.8106,111.6522,5.46,49,34,6.94,CN,2024-10-01 03:00:00
349,carutapera,-1.195,-46.02,25.67,79,71,4.17,BR,2024-10-01 03:00:00
350,richards bay,-28.783,32.0377,14.36,87,65,3.56,ZA,2024-10-01 03:00:00
351,mar del plata,-38.0023,-57.5575,12.59,81,78,6.65,AR,2024-10-01 03:00:00
352,nyurba,63.2842,118.3319,2.99,99,100,0.99,RU,2024-10-01 03:00:00
353,spearfish,44.4908,-103.8594,10.9,25,22,2.82,US,2024-10-01 03:00:00
354,zhangatas,43.5667,69.75,16.01,28,76,0.76,KZ,2024-10-01 03:00:00
355,childress,34.4264,-100.204,29.72,23,0,4.32,US,2024-10-01 03:00:00
356,bargaal,11.2864,51.0773,25.5,84,13,4.2,SO,2024-10-01 03:00:00
357,rio claro,-22.4114,-47.5614,25.04,31,1,1.79,BR,2024-10-01 03:00:00
358,rabaul,-4.1967,152.1721,30.53,68,18,4.79,PG,2024-10-01 03:00:00
359,buturlinovka,50.8239,40.6092,13.51,36,0,5.66,RU,2024-10-01 03:00:00
360,dingzhou,38.5131,114.9956,18.06,34,21,6.31,CN,2024-10-01 03:00:00
361,kargasok,59.0556,80.8572,11.05,88,99,6.07,RU,2024-10-01 03:00:00
362,howrah,22.5892,88.3103,30.68,86,60,2.03,IN,2024-10-01 03:00:00
363,puerto baquerizo moreno,-0.9,-89.6,20.14,87,96,5.02,EC,2024-10-01 03:00:00
364,ylitornio,66.3089,23.6773,7.0,81,99,6.58,FI,2024-10-01 03:00:00
365,mayma,52.0197,85.9114,13.77,64,99,2.78,RU,2024-10-01 03:00:00
366,karaton,-6.3424,106.1045,32.3,73,71,0.85,ID,2024-10-01 03:00:00
367,fale old settlement,-9.3852,-171.2468,27.85,77,67,3.84,TK,2024-10-01 03:00:00
368,fortuna,40.5982,-124.1573,16.95,57,0,1.05,US,2024-10-01 03:00:00
369,tsiombe,-25.3,45.4833,22.37,58,47,1.62,MG,2024-10-01 03:00:00
370,bemidji,47.4736,-94.8803,12.99,46,73,6.98,US,2024-10-01 03:00:00
371,domerat,46.3606,2.5343,13.46,90,100,2.77,FR,2024-10-01 03:00:00
372,charlottetown,46.2352,-63.1267,13.73,80,85,5.59,CA,2024-10-01 03:00:00
373,nadym,65.5333,72.5167,4.27,75,28,12.31,RU,2024-10-01 03:00:00
374,tadine,-21.55,167.8833,26.66,59,15,2.96,NC,2024-10-01 03:00:00
375,bel ombre,-4.6167,55.4167,26.72,78,56,7.63,SC,2024-10-01 03:00:00
376,sona,45.4388,10.8255,15.37,78,47,0.91,IT,2024-10-01 03:00:00
377,farmington,36.7281,-108.2187,27.31,20,7,4.22,US,2024-10-01 03:00:00
378,touros,-5.1989,-35.4608,24.43,76,11,7.46,BR,2024-10-01 03:00:00
379,kende,11.5197,4.2603,24.41,82,83,2.66,NG,2024-10-01 03:00:00
380,dugulubgey,43.6625,43.5369,11.61,89,73,0.88,RU,2024-10-01 03:00:00
381,broken hill,-31.95,141.4333,20.24,42,1,5.48,AU,2024-10-01 03:00:00
382,chibougamau,49.9168,-74.3659,10.89,81,4,3.61,CA,2024-10-01 03:00:00
383,gejiu,23.306,103.1635,13.66,94,100,2.6,CN,2024-10-01 03:00:00
384,paka,4.6374,103.4368,30.51,87,31,2.3,MY,2024-10-01 03:00:00
385,ujae,8.9322,165.7642,28.78,72,100,2.67,MH,2024-10-01 03:00:00
386,labrador city,52.9463,-66.9114,8.41,71,65,0.86,CA,2024-10-01 03:00:00
387,dayr al balah,31.4166,34.3452,25.81,69,36,4.76,PS,2024-10-01 03:00:00
388,bor,56.3567,44.0669,8.79,73,35,4.95,RU,2024-10-01 03:00:00
389,svetlyy,54.675,20.1347,4.67,72,74,3.41,RU,2024-10-01 03:00:00
390,taunsa,30.7048,70.6505,35.25,18,1,1.5,PK,2024-10-01 03:00:00
391,chichiriviche,10.9333,-68.2772,27.61,79,50,0.93,VE,2024-10-01 03:00:00
392,uray,60.1247,64.7758,10.05,72,67,4.89,RU,2024-10-01 03:00:00
393,guararapes,-21.2608,-50.6428,28.23,22,5,2.63,BR,2024-10-01 03:00:00
394,itoman,26.1247,127.6694,29.54,80,28,4.7,JP,2024-10-01 03:00:00
395,kimbe,-5.5502,150.1429,32.02,59,37,2.9,PG,2024-10-01 03:00:00
396,port douglas,-16.4833,145.4667,25.8,65,35,3.27,AU,2024-10-01 03:00:00
397,siwa oasis,29.2041,25.5195,22.08,60,0,3.0,EG,2024-10-01 03:00:00
398,maevatanana,-13.8831,48.5289,22.15,93,35,0.96,MG,2024-10-01 03:00:00
399,akureyri,65.6835,-18.0878,2.74,82,83,3.2,IS,2024-10-01 03:00:00
400,chuzhou,32.3219,118.2978,20.23,72,100,7.56,CN,2024-10-01 03:00:00
401,fort mcmurray,56.7268,-111.381,10.51,39,69,2.57,CA,2024-10-01 03:00:00
402,kani keli,-12.9536,45.1033,25.73,78,46,9.64,YT,2024-10-01 03:00:00
403,codajas,-3.8367,-62.0569,26.83,73,96,0.96,BR,2024-10-01 03:00:00
404,rongelap,11.1635,166.8941,28.52,77,100,5.79,MH,2024-10-01 03:00:00
405,verkhovazh'ye,60.7472,42.0465,1.53,91,18,1.06,RU,2024-10-01 03:00:00
406,labytnangi,66.6572,66.4183,4.4,66,83,13.52,RU,2024-10-01 03:00:00
407,nuuk,64.1835,-51.7216,3.21,98,99,4.43,GL,2024-10-01 03:00:00
408,chamical,-30.36,-66.314,27.77,8,0,5.65,AR,2024-10-01 03:00:00
409,griffith,41.5284,-87.4237,21.1,81,98,1.42,US,2024-10-01 03:00:00
410,oneonta,42.4529,-75.0638,17.22,88,100,1.36,US,2024-10-01 03:00:00
411,crane,31.3974,-102.3501,28.91,20,0,4.56,US,2024-10-01 03:00:00
412,margarita belen,-27.2616,-58.9722,28.94,33,1,2.62,AR,2024-10-01 03:00:00
413,moree,-29.4667,149.85,25.54,41,0,0.47,AU,2024-10-01 03:00:00
414,sakakah,29.9697,40.2064,24.45,37,0,4.91,SA,2024-10-01 03:00:00
415,sile,41.1754,29.6133,15.96,71,99,7.26,TR,2024-10-01 03:00:00
416,mandera,3.9366,41.867,26.1,62,83,3.8,KE,2024-10-01 03:00:00
417,chipinge,-20.1883,32.6236,16.29,90,23,1.0,ZW,2024-10-01 03:00:00
418,kourou,5.1552,-52.6478,25.95,83,12,2.9,GF,2024-10-01 03:00:00
419,nabire,-3.3667,135.4833,29.93,67,98,2.43,ID,2024-10-01 03:00:00
420,jiwani,25.05,61.7417,27.4,81,10,2.35,PK,2024-10-01 03:00:00
421,shiyan,32.6475,110.7781,17.93,66,70,3.08,CN,2024-10-01 03:00:00
422,sterling,39.0062,-77.4286,18.37,87,100,1.61,US,2024-10-01 03:00:00
423,vilyuysk,63.7553,121.6247,1.44,87,100,2.56,RU,2024-10-01 03:00:00
424,coxen hole,16.3244,-86.5366,28.88,78,47,5.01,HN,2024-10-01 03:00:00
425,mbanza kongo,-6.267,14.2401,21.97,82,93,2.13,AO,2024-10-01 03:00:00
426,le port,-20.9373,55.2919,22.45,74,15,2.31,RE,2024-10-01 03:00:00
427,pesaro,43.9036,12.8903,14.68,81,25,2.38,IT,2024-10-01 03:00:00
428,ta`u,-14.2336,-169.5144,24.84,88,100,4.4,AS,2024-10-01 03:00:00
429,kupang,-10.1667,123.5833,31.85,59,36,1.63,ID,2024-10-01 03:00:00
430,la passe,45.5549,-0.8967,15.71,89,93,1.33,FR,2024-10-01 03:00:00
431,novo aripuana,-5.1206,-60.3797,26.09,76,65,0.66,BR,2024-10-01 03:00:00
432,usogorsk,63.4106,48.6872,3.57,83,45,4.27,RU,2024-10-01 03:00:00
433,sydney,-33.8679,151.2073,19.8,58,13,4.47,AU,2024-10-01 03:00:00
434,danville,36.586,-79.395,21.18,96,30,2.8,US,2024-10-01 03:00:00
435,binka,21.0333,83.8,28.39,88,78,2.2,IN,2024-10-01 03:00:00
436,wakkanai,45.4094,141.6739,21.11,61,82,11.67,JP,2024-10-01 03:00:00
437,yunak,38.8142,31.7322,8.49,79,20,1.75,TR,2024-10-01 03:00:00
438,salalah,17.0151,54.0924,26.56,80,53,2.45,OM,2024-10-01 03:00:00
439,nagqu,31.5,92.0,10.12,50,5,1.82,CN,2024-10-01 03:00:00
440,carnarvon,-24.8667,113.6333,22.22,68,0,4.71,AU,2024-10-01 03:00:00
441,jining,35.405,116.5814,18.31,52,6,7.51,CN,2024-10-01 03:00:00
442,quellon,-43.1167,-73.6167,3.42,73,36,3.37,CL,2024-10-01 03:00:00
443,alotau,-10.3069,150.4462,28.72,74,74,3.24,PG,2024-10-01 03:00:00
444,turpan,42.9333,89.1667,18.95,17,0,1.32,CN,2024-10-01 03:00:00
445,nova xavantina,-14.6667,-52.35,29.61,30,85,0.97,BR,2024-10-01 03:00:00
446,kralendijk,12.15,-68.2667,28.88,74,18,3.44,BQ,2024-10-01 03:00:00
447,kingston,17.997,-76.7936,27.95,84,26,1.06,JM,2024-10-01 03:00:00
448,nampa,43.5407,-116.5635,17.83,16,26,2.16,US,2024-10-01 03:00:00
449,debre birhan,9.6833,39.5333,9.4,74,64,1.7,ET,2024-10-01 03:00:00
450,wimauma,27.7125,-82.299,28.29,82,91,1.76,US,2024-10-01 03:00:00
451,midvagur,62.0511,-7.1939,6.96,94,98,1.51,FO,2024-10-01 03:00:00
452,bethanie,-26.4833,17.15,6.74,47,0,0.9,NA,2024-10-01 03:00:00
453,shamokin,40.789,-76.5589,17.23,90,100,2.1,US,2024-10-01 03:00:00
454,gunnedah,-30.9833,150.25,23.6,38,1,2.45,AU,2024-10-01 03:00:00
455,nsanje,-16.92,35.262,26.22,28,0,1.68,MW,2024-10-01 03:00:00
456,tomatlan,19.9333,-105.25,24.96,96,100,0.83,MX,2024-10-01 03:00:00
457,kulhudhuffushi,6.6221,73.07,27.83,77,94,1.23,MV,2024-10-01 03:00:00
458,bengkulu,-3.8004,102.2655,29.35,79,31,1.88,ID,2024-10-01 03:00:00
459,dongtai,32.8523,120.3095,18.6,86,100,6.88,CN,2024-10-01 03:00:00
460,ankazobe,-18.3167,47.1167,14.91,90,23,1.42,MG,2024-10-01 03:00:00
461,maceio,-9.6658,-35.7353,24.0,70,50,3.81,BR,2024-10-01 03:00:00
462,isanlu-itedoijowa,8.2667,5.8333,22.29,95,77,1.86,NG,2024-10-01 03:00:00
463,whitby,54.4877,-0.615,12.57,90,100,9.02,GB,2024-10-01 03:00:00
464,road town,18.4167,-64.6167,28.39,79,16,4.57,VG,2024-10-01 03:00:00
465,patong,7.8961,98.2966,29.25,82,100,4.7,TH,2024-10-01 03:00:00
466,holualoa,19.6228,-155.9522,25.44,75,6,1.8,US,2024-10-01 03:00:00
467,charters towers,-20.1,146.2667,32.93,35,3,5.3,AU,2024-10-01 03:00:00
468,broome,42.2506,-75.833,17.39,78,100,2.12,US,2024-10-01 03:00:00
469,isangel,-19.55,169.2667,27.21,72,3,3.98,VU,2024-10-01 03:00:00
470,tralee,52.2704,-9.7026,10.77,93,59,1.66,IE,2024-10-01 03:00:00
471,sebastopol,44.6,33.5333,18.35,66,100,6.03,UA,2024-10-01 03:00:00
472,haiku-pauwela,20.9219,-156.3051,26.83,74,19,6.79,US,2024-10-01 03:00:00
473,sault ste. marie,46.5168,-84.3333,16.09,91,2,3.39,CA,2024-10-01 03:00:00
474,bandarban,22.1965,92.2262,30.21,90,100,0.72,BD,2024-10-01 03:00:00
475,uyskoye,54.3775,60.0047,9.9,56,80,1.0,RU,2024-10-01 03:00:00
476,alfredo v. bonfil,21.0833,-86.85,26.35,96,100,1.93,MX,2024-10-01 03:00:00
477,yangambi,0.8102,24.4336,22.18,94,98,0.66,CD,2024-10-01 03:00:00
478,onsong,42.9572,129.9933,10.36,94,100,2.57,KP,2024-10-01 03:00:00
479,hargeysa,9.56,44.065,22.03,68,79,4.96,SO,2024-10-01 03:00:00
480,youhao,47.8667,128.8333,11.78,51,31,3.11,CN,2024-10-01 03:00:00
481,birendranagar,28.6019,81.6339,25.4,91,14,0.95,NP,2024-10-01 03:00:00
482,sechura,-5.5569,-80.8222,18.78,81,60,5.71,PE,2024-10-01 03:00:00
483,inari,68.906,27.0288,4.56,76,95,7.15,FI,2024-10-01 03:00:00
484,san jose del guaviare,2.5729,-72.6459,24.52,80,85,1.13,CO,2024-10-01 03:00:00
485,jinchang,38.4953,102.1739,11.29,26,0,0.45,CN,2024-10-01 03:00:00
486,oskaloosa,41.2964,-92.6444,23.75,52,0,3.73,US,2024-10-01 03:00:00
487,vernon,50.2581,-119.2691,13.6,42,77,0.51,CA,2024-10-01 03:00:00
488,dali,25.7,100.1833,16.96,94,100,2.27,CN,2024-10-01 03:00:00
489,mount pearl,47.5166,-52.7813,11.65,91,100,3.89,CA,2024-10-01 03:00:00
490,homer,59.6425,-151.5483,9.79,68,100,4.27,US,2024-10-01 03:00:00
491,suva,-18.1416,178.4415,24.94,95,57,5.97,FJ,2024-10-01 03:00:00
492,oltinko'l,40.8011,72.1634,17.46,34,15,0.26,UZ,2024-10-01 03:00:00
493,pointe-noire,-4.7761,11.8635,24.87,91,83,3.44,CG,2024-10-01 03:00:00
494,kushtagi,15.7667,76.2,27.35,73,61,3.89,IN,2024-10-01 03:00:00
495,walvis bay,-22.9575,14.5053,11.12,74,0,3.09,NA,2024-10-01 03:00:00
496,san fernando,15.0286,120.6898,29.55,78,100,4.89,PH,2024-10-01 03:00:00
497,jayapura,-2.5333,140.7,29.52,72,88,3.05,ID,2024-10-01 03:00:00
498,nogliki,51.8333,143.1667,7.16,80,100,3.29,RU,2024-10-01 03:00:00
499,coquimbo,-29.9533,-71.3436,11.99,79,1,1.03,CL,2024-10-01 03:00:00
500,pontianak,-0.0333,109.3333,30.45,88,83,1.3,ID,2024-10-01 03:00:00
501,mineiros,-17.5694,-52.5511,26.33,35,66,3.04,BR,2024-10-01 03:00:00
502,valparaiso,-33.0393,-71.6273,12.21,78,65,2.17,CL,2024-10-01 03:00:00
503,the pas,53.8251,-101.2541,9.15,65,67,6.79,CA,2024-10-01 03:00:00
504,rumuruti,0.267,36.5389,16.13,85,95,1.63,KE,2024-10-01 03:00:00
505,magadan,59.5667,150.8,4.18,50,100,1.6,RU,2024-10-01 03:00:00
506,korla,41.7597,86.1469,14.61,53,16,1.93,CN,2024-10-01 03:00:00
507,ismailia,30.6043,32.2723,21.49,81,0,3.52,EG,2024-10-01 03:00:00
508,morant bay,17.8815,-76.4093,27.26,85,70,2.01,JM,2024-10-01 03:00:00
509,mahina,-17.5065,-149.489,28.01,76,7,4.26,PF,2024-10-01 03:00:00
510,aliwal north,-30.6937,26.7114,2.35,71,13,2.68,ZA,2024-10-01 03:00:00
511,auki,-8.7676,160.7034,29.69,67,35,1.68,SB,2024-10-01 03:00:00
512,union de tula,19.9667,-104.2667,20.12,85,100,1.88,MX,2024-10-01 03:00:00
513,kerman,30.2832,57.0788,20.86,45,21,1.79,IR,2024-10-01 03:00:00
514,santo antonio,-6.3106,-35.4789,21.53,82,59,4.41,BR,2024-10-01 03:00:00
515,umm kaddadah,13.6017,26.6876,28.78,50,20,2.75,SD,2024-10-01 03:00:00
516,havre,49.5833,0.3333,14.43,79,83,6.47,FR,2024-10-01 03:00:00
517,buenavista,8.9769,125.4089,32.43,69,93,2.47,PH,2024-10-01 03:00:00
518,jiuquan,39.7432,98.5174,12.5,20,0,1.09,CN,2024-10-01 03:00:00
519,miass,55.045,60.1083,8.74,65,81,1.33,RU,2024-10-01 03:00:00
520,torghay,49.6339,63.4981,12.99,38,9,4.24,KZ,2024-10-01 03:00:00
521,cedeira,43.6797,-8.0209,18.11,90,100,9.25,ES,2024-10-01 03:00:00
522,veroia,40.5233,22.2036,12.01,60,0,1.53,GR,2024-10-01 03:00:00
523,papao,-17.75,-149.55,28.07,74,30,1.52,PF,2024-10-01 03:00:00
524,borrazopolis,-23.9411,-51.5875,24.63,35,0,1.8,BR,2024-10-01 03:00:00
525,muli,2.9167,73.5667,27.85,74,85,2.22,MV,2024-10-01 03:00:00
526,saint-philippe,-21.3585,55.7679,21.53,79,31,4.83,RE,2024-10-01 03:00:00
527,saynshand,44.8824,110.1163,3.42,59,60,6.14,MN,2024-10-01 03:00:00
528,queenstown,-31.8976,26.8753,2.95,63,13,5.56,ZA,2024-10-01 03:00:00
529,tamandare,-8.7597,-35.1047,23.21,80,87,4.17,BR,2024-10-01 03:00:00
530,tela,15.7833,-87.45,28.85,82,60,1.81,HN,2024-10-01 03:00:00
531,souillac,-20.5167,57.5167,22.44,77,70,6.5,MU,2024-10-01 03:00:00
532,ola,59.5833,151.2833,4.96,49,100,1.0,RU,2024-10-01 03:00:00
533,taoudenni,22.6783,-3.9836,34.89,19,1,7.54,ML,2024-10-01 03:00:00
534,kas,36.2018,29.6377,22.16,44,0,3.37,TR,2024-10-01 03:00:00
535,san benito abad,8.929,-75.0271,24.59,82,75,1.96,CO,2024-10-01 03:00:00
536,bahia de caraquez,-0.6,-80.4167,22.81,83,65,3.13,EC,2024-10-01 03:00:00
537,victoria point,-27.5833,153.3,22.68,61,26,6.56,AU,2024-10-01 03:00:00
538,mossel bay,-34.1831,22.146,10.96,73,81,6.19,ZA,2024-10-01 03:00:00
539,ishikawa,26.4233,127.8214,29.57,80,35,3.96,JP,2024-10-01 03:00:00
540,alesund,62.4723,6.1549,12.09,70,83,2.61,NO,2024-10-01 03:00:00
541,qarqaraly,49.4058,75.4742,12.29,40,5,2.07,KZ,2024-10-01 03:00:00
542,sao gabriel da cachoeira,-0.1303,-67.0892,25.57,79,94,0.25,BR,2024-10-01 03:00:00
543,coahuayana de hidalgo,18.7,-103.6583,25.45,94,96,0.63,MX,2024-10-01 03:00:00
544,toktogul,41.8708,72.9402,17.81,41,29,0.2,KG,2024-10-01 03:00:00
545,shumikha,55.2261,63.2961,10.3,62,90,2.95,RU,2024-10-01 03:00:00
546,kathu,7.9178,98.3332,28.18,82,100,4.68,TH,2024-10-01 03:00:00
547,taltal,-25.4,-70.4833,15.74,76,26,1.54,CL,2024-10-01 03:00:00
548,nikolayevsk-on-amure,53.1406,140.73,5.42,90,100,3.85,RU,2024-10-01 03:00:00
549,nako,31.8814,78.627,14.81,61,28,0.78,IN,2024-10-01 03:00:00
550,villa gesell,-37.2639,-56.973,13.46,74,98,4.9,AR,2024-10-01 03:00:00
551,pingliang,35.5392,106.6861,11.96,39,23,0.86,CN,2024-10-01 03:00:00
552,calp,38.6447,0.0445,19.74,90,0,1.87,ES,2024-10-01 03:00:00
553,itaueira,-7.6033,-43.0256,29.39,38,72,3.99,BR,2024-10-01 03:00:00
554,alofi,-19.0595,-169.9187,25.07,64,74,9.11,NU,2024-10-01 03:00:00
555,nizhniy kuranakh,58.8353,125.4869,2.58,97,100,5.05,RU,2024-10-01 03:00:00
556,turbat,26.0023,63.044,27.35,72,3,1.93,PK,2024-10-01 03:00:00
557,hotan,37.0997,79.9269,14.33,52,39,0.39,CN,2024-10-01 03:00:00
558,chippewa falls,44.9369,-91.3929,21.97,55,5,8.31,US,2024-10-01 03:00:00
559,kibakwe,-6.7167,36.3667,16.85,84,32,1.39,TZ,2024-10-01 03:00:00
560,luderitz,-26.6481,15.1594,11.72,57,0,5.72,NA,2024-10-01 03:00:00
561,mananara,-16.1667,49.7667,20.61,90,41,1.12,MG,2024-10-01 03:00:00
562,leer,53.2316,7.461,12.23,97,100,3.66,DE,2024-10-01 03:00:00
563,luorong,24.4058,109.6086,24.88,70,92,9.98,CN,2024-10-01 03:00:00
564,nova vicosa,-17.8919,-39.3719,22.86,81,7,3.56,BR,2024-10-01 03:00:00
565,umarkhed,19.6,77.7,26.57,86,82,1.71,IN,2024-10-01 03:00:00
566,hammerfest,70.6634,23.6821,5.12,72,60,3.75,NO,2024-10-01 03:00:00
567,zaysan,47.4667,84.8667,11.99,29,2,1.91,KZ,2024-10-01 03:00:00
568,medyn',54.9692,35.8586,7.72,76,77,5.76,RU,2024-10-01 03:00:00
569,benjamin constant,-4.3831,-70.0311,25.37,84,66,0.57,BR,2024-10-01 03:00:00
570,harper,4.375,-7.7169,24.68,89,99,4.25,LR,2024-10-01 03:00:00
571,bandar labuan,5.2888,115.2692,27.26,89,47,2.48,MY,2024-10-01 03:00:00
572,codrington,-38.2667,141.9667,14.59,70,15,6.53,AU,2024-10-01 03:00:00
573,nouadhibou,20.931,-17.0347,21.21,81,97,8.25,MR,2024-10-01 03:00:00
574,ardakan,32.31,54.0175,19.68,29,0,2.18,IR,2024-10-01 03:00:00
575,morehead city,34.7229,-76.726,25.66,84,1,3.86,US,2024-10-01 03:00:00
576,prince george,53.9166,-122.753,4.78,95,100,2.83,CA,2024-10-01 03:00:00
577,linxia chengguanzhen,35.6003,103.2064,7.11,72,86,0.47,CN,2024-10-01 03:00:00
578,sao miguel do araguaia,-13.275,-50.1628,31.26,25,48,1.86,BR,2024-10-01 03:00:00
579,el abiodh sidi cheikh,32.893,0.5484,24.22,46,0,1.18,DZ,2024-10-01 03:00:00
580,karukh,34.4811,62.5863,18.39,38,1,0.82,AF,2024-10-01 03:00:00
581,wenchang,30.904,118.4887,17.79,91,100,4.21,CN,2024-10-01 03:00:00
582,port-vila,-17.7338,168.3219,27.65,72,27,2.73,VU,2024-10-01 03:00:00
583,pierre,44.3683,-100.351,16.84,24,0,6.68,US,2024-10-01 03:00:00
584,pamandzi,-12.7967,45.2794,25.89,78,81,9.86,YT,2024-10-01 03:00:00
585,chegdomyn,51.1167,133.0167,7.98,60,39,2.32,RU,2024-10-01 03:00:00
586,nayoro,44.3506,142.4578,21.74,72,22,5.13,JP,2024-10-01 03:00:00
587,challapata,-18.9,-66.7667,13.47,16,16,2.76,BO,2024-10-01 03:00:00
588,belmonte,-15.8631,-38.8828,22.09,84,7,2.81,BR,2024-10-01 03:00:00
589,dzhalagash,45.0833,64.6667,15.15,25,97,3.76,KZ,2024-10-01 03:00:00
590,lesnikovo,55.2822,65.3175,10.73,64,76,2.48,RU,2024-10-01 03:00:00
591,shakhtersk,48.0625,38.5167,14.0,41,0,8.01,UA,2024-10-01 03:00:00
592,ulricehamn,57.7916,13.4142,6.97,84,73,3.31,SE,2024-10-01 03:00:00
593,anar darah,32.7587,61.654,21.18,24,0,1.61,AF,2024-10-01 03:00:00
